{"H6":{"name":"Tyree Energy Technologies (TETB)","address":"Tyree Energy Technologies (TETB) H6, UNSW, Kensington, NSW, Australia, 2033","latitude":2,"longitude":1},"B8":{"name":"University Terraces","address":"University Terraces B8, UNSW, Kensington, NSW, Australia, 2033","latitude":2,"longitude":1},"E12":{"name":"UNSW Business School","address":"UNSW Business School E12, UNSW, Kensington, NSW, Australia, 2033","latitude":2,"longitude":1},"D14":{"name":"UNSW Hall","address":"UNSW Hall D14, UNSW, Kensington, NSW, Australia, 2033","latitude":2,"longitude":1},"H1":{"name":"UNSW Regiment","address":"UNSW Regiment H1, UNSW, Kensington, NSW, Australia, 2033","latitude":2,"longitude":1},"J2":{"name":"UNSW Regiment 2","address":"UNSW Regiment 2 J2, UNSW, Kensington, NSW, Australia, 2033","latitude":2,"longitude":1},"B10":{"name":"UNSW Village","address":"UNSW Village B10, UNSW, Kensington, NSW, Australia, 2033","latitude":2,"longitude":1},"H22":{"name":"Valentine Annexe","address":"Valentine Annexe H22, UNSW, Kensington, NSW, Australia, 2033","latitude":2,"longitude":1},"C27":{"name":"Wallace Wurth","address":"Wallace Wurth C27, UNSW, Kensington, NSW, Australia, 2033","latitude":2,"longitude":1},"M7":{"name":"Warrane College","address":"Warrane College M7, UNSW, Kensington, NSW, Australia, 2033","latitude":2,"longitude":1},"C15":{"name":"White House","address":"White House C15, UNSW, Kensington, NSW, Australia, 2033","latitude":2,"longitude":1},"J18":{"name":"Willis Annexe","address":"Willis Annexe J18, UNSW, Kensington, NSW, Australia, 2033","latitude":2,"longitude":1},"G27":{"name":"AGSM","address":"AGSM G27, UNSW, Kensington, NSW, Australia, 2033","latitude":2,"longitude":1},"J17":{"name":"Ainsworth Building","address":"Ainsworth Building J17, UNSW, Kensington, NSW, Australia, 2033","latitude":2,"longitude":1},"F22":{"name":"Bank","address":"Bank F22, UNSW, Kensington, NSW, Australia, 2033","latitude":2,"longitude":1},"N13":{"name":"Barker Apartments","address":"Barker Apartments N13, UNSW, Kensington, NSW, Australia, 2033","latitude":2,"longitude":1},"N18":{"name":"Barker Street Parking Station","address":"Barker Street Parking Station N18, UNSW, Kensington, NSW, Australia, 2033","latitude":2,"longitude":1},"D17":{"name":"Basser College","address":"Basser College D17, UNSW, Kensington, NSW, Australia, 2033","latitude":2,"longitude":1},"D26":{"name":"Biological Sciences North","address":"Biological Sciences North D26, UNSW, Kensington, NSW, Australia, 2033","latitude":2,"longitude":1},"E26":{"name":"Biological Sciences South","address":"Biological Sciences South E26, UNSW, Kensington, NSW, Australia, 2033","latitude":2,"longitude":1},"G6":{"name":"Blockhouse","address":"Blockhouse G6, UNSW, Kensington, NSW, Australia, 2033","latitude":2,"longitude":1},"H25":{"name":"Botany Street Parking Station","address":"Botany Street Parking Station H25, UNSW, Kensington, NSW, Australia, 2033","latitude":2,"longitude":1},"K17":{"name":"Building K17","address":"Building K17 K17, UNSW, Kensington, NSW, Australia, 2033","latitude":2,"longitude":1},"L5":{"name":"Building L5","address":"Building L5 L5, UNSW, Kensington, NSW, Australia, 2033","latitude":2,"longitude":1},"E19":{"name":"Central Lecture Block","address":"Central Lecture Block E19, UNSW, Kensington, NSW, Australia, 2033","latitude":2,"longitude":1},"C22":{"name":"Chancellery","address":"Chancellery C22, UNSW, Kensington, NSW, Australia, 2033","latitude":2,"longitude":1},"F10":{"name":"Chemical Sciences","address":"Chemical Sciences F10, UNSW, Kensington, NSW, Australia, 2033","latitude":2,"longitude":1},"H20":{"name":"Civil Engineering","address":"Civil Engineering H20, UNSW, Kensington, NSW, Australia, 2033","latitude":2,"longitude":1},"C24":{"name":"Clancy Auditorium","address":"Clancy Auditorium C24, UNSW, Kensington, NSW, Australia, 2033","latitude":2,"longitude":1},"B16":{"name":"Colombo House","address":"Colombo House B16, UNSW, Kensington, NSW, Australia, 2033","latitude":2,"longitude":1},"F12":{"name":"Dalton","address":"Dalton F12, UNSW, Kensington, NSW, Australia, 2033","latitude":2,"longitude":1},"G17":{"name":"Electrical Engineering","address":"Electrical Engineering G17, UNSW, Kensington, NSW, Australia, 2033","latitude":2,"longitude":1},"D8":{"name":"Esme Timbery Creative Practice Lab","address":"Esme Timbery Creative Practice Lab D8, UNSW, Kensington, NSW, Australia, 2033","latitude":2,"longitude":1},"B18":{"name":"Fig Tree Hall","address":"Fig Tree Hall B18, UNSW, Kensington, NSW, Australia, 2033","latitude":2,"longitude":1},"B14D":{"name":"Fig Tree Theatre","address":"Fig Tree Theatre B14D, UNSW, Kensington, NSW, Australia, 2033","latitude":2,"longitude":1},"B5":{"name":"Fitness and Aquatic Centre","address":"Fitness and Aquatic Centre B5, UNSW, Kensington, NSW, Australia, 2033","latitude":2,"longitude":1},"B17":{"name":"Goldstein College","address":"Goldstein College B17, UNSW, Kensington, NSW, Australia, 2033","latitude":2,"longitude":1},"D16":{"name":"Goldstein Hall","address":"Goldstein Hall D16, UNSW, Kensington, NSW, Australia, 2033","latitude":2,"longitude":1},"F20":{"name":"Goodsell","address":"Goodsell F20, UNSW, Kensington, NSW, Australia, 2033","latitude":2,"longitude":1},"E10":{"name":"Hilmer Building","address":"Hilmer Building E10, UNSW, Kensington, NSW, Australia, 2033","latitude":2,"longitude":1},"N8":{"name":"House At Pooh Corner","address":"House At Pooh Corner N8, UNSW, Kensington, NSW, Australia, 2033","latitude":2,"longitude":1},"C6":{"name":"International House","address":"International House C6, UNSW, Kensington, NSW, Australia, 2033","latitude":2,"longitude":1},"G19":{"name":"John Niland Scientia","address":"John Niland Scientia G19, UNSW, Kensington, NSW, Australia, 2033","latitude":2,"longitude":1},"O14":{"name":"Kanga's House","address":"Kanga's House O14, UNSW, Kensington, NSW, Australia, 2033","latitude":2,"longitude":1},"J14":{"name":"Keith Burrows Theatre","address":"Keith Burrows Theatre J14, UNSW, Kensington, NSW, Australia, 2033","latitude":2,"longitude":1},"F8":{"name":"Law Building","address":"Law Building F8, UNSW, Kensington, NSW, Australia, 2033","latitude":2,"longitude":1},"F21":{"name":"Library","address":"Library F21, UNSW, Kensington, NSW, Australia, 2033","latitude":2,"longitude":1},"C25":{"name":"Lowy Cancer Research Centre","address":"Lowy Cancer Research Centre C25, UNSW, Kensington, NSW, Australia, 2033","latitude":2,"longitude":1},"F23":{"name":"Mathews","address":"Mathews F23, UNSW, Kensington, NSW, Australia, 2033","latitude":2,"longitude":1},"E24A":{"name":"Mathews Arcade","address":"Mathews Arcade E24A, UNSW, Kensington, NSW, Australia, 2033","latitude":2,"longitude":1},"D23":{"name":"Mathews Threatres","address":"Mathews Threatres D23, UNSW, Kensington, NSW, Australia, 2033","latitude":2,"longitude":1},"C20":{"name":"Morven Brown","address":"Morven Brown C20, UNSW, Kensington, NSW, Australia, 2033","latitude":2,"longitude":1},"M15A":{"name":"Myers Theatre","address":"Myers Theatre M15A, UNSW, Kensington, NSW, Australia, 2033","latitude":2,"longitude":1},"L6":{"name":"New College","address":"New College L6, UNSW, Kensington, NSW, Australia, 2033","latitude":2,"longitude":1},"H3":{"name":"New College Postgraduate Village","address":"New College Postgraduate Village H3, UNSW, Kensington, NSW, Australia, 2033","latitude":2,"longitude":1},"J12":{"name":"Newton","address":"Newton J12, UNSW, Kensington, NSW, Australia, 2033","latitude":2,"longitude":1},"D2":{"name":"NIDA","address":"NIDA D2, UNSW, Kensington, NSW, Australia, 2033","latitude":2,"longitude":1},"E2":{"name":"NIDA Parade Theatre","address":"NIDA Parade Theatre E2, UNSW, Kensington, NSW, Australia, 2033","latitude":2,"longitude":1},"K15":{"name":"Old Main","address":"Old Main K15, UNSW, Kensington, NSW, Australia, 2033","latitude":2,"longitude":1},"B15":{"name":"Old Tote","address":"Old Tote B15, UNSW, Kensington, NSW, Australia, 2033","latitude":2,"longitude":1},"D18":{"name":"Philip Baxter College","address":"Philip Baxter College D18, UNSW, Kensington, NSW, Australia, 2033","latitude":2,"longitude":1},"K14":{"name":"Physics Theatre","address":"Physics Theatre K14, UNSW, Kensington, NSW, Australia, 2033","latitude":2,"longitude":1},"E15":{"name":"Quadrangle","address":"Quadrangle E15, UNSW, Kensington, NSW, Australia, 2033","latitude":2,"longitude":1},"B21":{"name":"Repository","address":"Repository B21, UNSW, Kensington, NSW, Australia, 2033","latitude":2,"longitude":1},"F17":{"name":"Rex Vowels Theatre","address":"Rex Vowels Theatre F17, UNSW, Kensington, NSW, Australia, 2033","latitude":2,"longitude":1},"G14":{"name":"Robert Webster","address":"Robert Webster G14, UNSW, Kensington, NSW, Australia, 2033","latitude":2,"longitude":1},"G15":{"name":"Robert Webster Threatres","address":"Robert Webster Threatres G15, UNSW, Kensington, NSW, Australia, 2033","latitude":2,"longitude":1},"E6":{"name":"Roundhouse","address":"Roundhouse E6, UNSW, Kensington, NSW, Australia, 2033","latitude":2,"longitude":1},"M15":{"name":"Rupert Myers","address":"Rupert Myers M15, UNSW, Kensington, NSW, Australia, 2033","latitude":2,"longitude":1},"H8":{"name":"Sam Cracknell Pavilion","address":"Sam Cracknell Pavilion H8, UNSW, Kensington, NSW, Australia, 2033","latitude":2,"longitude":1},"F25":{"name":"Samuels","address":"Samuels F25, UNSW, Kensington, NSW, Australia, 2033","latitude":2,"longitude":1},"E8":{"name":"Science and Engineering","address":"Science and Engineering E8, UNSW, Kensington, NSW, Australia, 2033","latitude":2,"longitude":1},"F13":{"name":"Science Theatre","address":"Science Theatre F13, UNSW, Kensington, NSW, Australia, 2033","latitude":2,"longitude":1},"G23":{"name":"Solar Industrial Research Facility","address":"Solar Industrial Research Facility G23, UNSW, Kensington, NSW, Australia, 2033","latitude":2,"longitude":1},"E4":{"name":"Squarehouse","address":"Squarehouse E4, UNSW, Kensington, NSW, Australia, 2033","latitude":2,"longitude":1},"H13":{"name":"The Red Centre","address":"The Red Centre H13, UNSW, Kensington, NSW, Australia, 2033","latitude":2,"longitude":1}}